{"type": "FeatureCollection", "features": [{"type": "Feature", "id": 724832299, "geometry": {"type": "Point", "coordinates": [-119.229831, 46.225063]}, "properties": {}}, {"type": "Feature", "id": 724832300, "geometry": {"type": "Point", "coordinates": [-119.230048, 46.225228]}, "properties": {}}, {"type": "Feature", "id": 724832301, "geometry": {"type": "Point", "coordinates": [-119.229836, 46.225361]}, "properties": {}}, {"type": "Feature", "id": 724832302, "geometry": {"type": "Point", "coordinates": [-119.229942, 46.225442]}, "properties": {}}, {"type": "Feature", "id": 724832303, "geometry": {"type": "Point", "coordinates": [-119.229163, 46.225927]}, "properties": {}}, {"type": "Feature", "id": 724832304, "geometry": {"type": "Point", "coordinates": [-119.22897, 46.22578]}, "properties": {}}, {"type": "Feature", "id": 724832305, "geometry": {"type": "Point", "coordinates": [-119.228556, 46.226058]}, "properties": {}}, {"type": "Feature", "id": 724832306, "geometry": {"type": "Point", "coordinates": [-119.228647, 46.226127]}, "properties": {}}, {"type": "Feature", "id": 724832307, "geometry": {"type": "Point", "coordinates": [-119.228541, 46.226193]}, "properties": {}}, {"type": "Feature", "id": 724832308, "geometry": {"type": "Point", "coordinates": [-119.22871, 46.226321]}, "properties": {}}, {"type": "Feature", "id": 724832309, "geometry": {"type": "Point", "coordinates": [-119.228808, 46.22626]}, "properties": {}}, {"type": "Feature", "id": 724832310, "geometry": {"type": "Point", "coordinates": [-119.229267, 46.226608]}, "properties": {}}, {"type": "Feature", "id": 724832311, "geometry": {"type": "Point", "coordinates": [-119.228542, 46.22705]}, "properties": {}}, {"type": "Feature", "id": 724832312, "geometry": {"type": "Point", "coordinates": [-119.22809, 46.226708]}, "properties": {}}, {"type": "Feature", "id": 724832313, "geometry": {"type": "Point", "coordinates": [-119.227762, 46.2264]}, "properties": {}}, {"type": "Feature", "id": 724832314, "geometry": {"type": "Point", "coordinates": [-119.227561, 46.226393]}, "properties": {}}, {"type": "Feature", "id": 724832315, "geometry": {"type": "Point", "coordinates": [-119.227387, 46.227342]}, "properties": {}}, {"type": "Feature", "id": 724832316, "geometry": {"type": "Point", "coordinates": [-119.22757, 46.227348]}, "properties": {}}, {"type": "Feature", "id": 724832317, "geometry": {"type": "Point", "coordinates": [-119.227516, 46.227993]}, "properties": {}}, {"type": "Feature", "id": 724832318, "geometry": {"type": "Point", "coordinates": [-119.22611, 46.227698]}, "properties": {}}, {"type": "Feature", "id": 724832319, "geometry": {"type": "Point", "coordinates": [-119.226142, 46.2273]}, "properties": {}}, {"type": "Feature", "id": 724832320, "geometry": {"type": "Point", "coordinates": [-119.226303, 46.227306]}, "properties": {}}, {"type": "Feature", "id": 724832321, "geometry": {"type": "Point", "coordinates": [-119.226125, 46.227168]}, "properties": {}}, {"type": "Feature", "id": 724832322, "geometry": {"type": "Point", "coordinates": [-119.226344, 46.226434]}, "properties": {}}, {"type": "Feature", "id": 724832323, "geometry": {"type": "Point", "coordinates": [-119.225952, 46.226423]}, "properties": {}}, {"type": "Feature", "id": 724832324, "geometry": {"type": "Point", "coordinates": [-119.225955, 46.226368]}, "properties": {}}, {"type": "Feature", "id": 724832325, "geometry": {"type": "Point", "coordinates": [-119.225856, 46.226365]}, "properties": {}}, {"type": "Feature", "id": 724832326, "geometry": {"type": "Point", "coordinates": [-119.225897, 46.225696]}, "properties": {}}, {"type": "Feature", "id": 724832327, "geometry": {"type": "Point", "coordinates": [-119.226003, 46.225699]}, "properties": {}}, {"type": "Feature", "id": 724832328, "geometry": {"type": "Point", "coordinates": [-119.226006, 46.225645]}, "properties": {}}, {"type": "Feature", "id": 724832329, "geometry": {"type": "Point", "coordinates": [-119.226074, 46.225604]}, "properties": {}}, {"type": "Feature", "id": 724832330, "geometry": {"type": "Point", "coordinates": [-119.226158, 46.225182]}, "properties": {}}, {"type": "Feature", "id": 724832331, "geometry": {"type": "Point", "coordinates": [-119.226459, 46.225165]}, "properties": {}}, {"type": "Feature", "id": 724832332, "geometry": {"type": "Point", "coordinates": [-119.226465, 46.225072]}, "properties": {}}, {"type": "Feature", "id": 724832333, "geometry": {"type": "Point", "coordinates": [-119.226342, 46.225068]}, "properties": {}}, {"type": "Feature", "id": 724832334, "geometry": {"type": "Point", "coordinates": [-119.22635, 46.224932]}, "properties": {}}, {"type": "Feature", "id": 724832335, "geometry": {"type": "Point", "coordinates": [-119.226309, 46.224931]}, "properties": {}}, {"type": "Feature", "id": 724832336, "geometry": {"type": "Point", "coordinates": [-119.226321, 46.224747]}, "properties": {}}, {"type": "Feature", "id": 724832337, "geometry": {"type": "Point", "coordinates": [-119.22637, 46.224749]}, "properties": {}}, {"type": "Feature", "id": 724832338, "geometry": {"type": "Point", "coordinates": [-119.226379, 46.224613]}, "properties": {}}, {"type": "Feature", "id": 724832339, "geometry": {"type": "Point", "coordinates": [-119.227898, 46.224666]}, "properties": {}}, {"type": "Feature", "id": 724832340, "geometry": {"type": "Point", "coordinates": [-119.227616, 46.225241]}, "properties": {}}, {"type": "Feature", "id": 724832341, "geometry": {"type": "Point", "coordinates": [-119.227607, 46.225784]}, "properties": {}}, {"type": "Feature", "id": 724832342, "geometry": {"type": "Point", "coordinates": [-119.227806, 46.22579]}, "properties": {}}, {"type": "Feature", "id": 724832343, "geometry": {"type": "Point", "coordinates": [-119.228456, 46.225382]}, "properties": {}}, {"type": "Feature", "id": 724832344, "geometry": {"type": "Point", "coordinates": [-119.228403, 46.225341]}, "properties": {}}, {"type": "Feature", "id": 724832345, "geometry": {"type": "Point", "coordinates": [-119.22917, 46.224857]}, "properties": {}}, {"type": "Feature", "id": 724832346, "geometry": {"type": "Point", "coordinates": [-119.229556, 46.225147]}, "properties": {}}, {"type": "Feature", "id": 724832347, "geometry": {"type": "Point", "coordinates": [-119.229619, 46.225195]}, "properties": {}}, {"type": "Feature", "id": 1342347366, "geometry": {"type": "Point", "coordinates": [-119.228695, 46.226647]}, "properties": {"brand": "Macy's", "brand:wikidata": "Q629269", "brand:wikipedia": "en:Macy's", "name": "Macy's", "shop": "department_store", "source": "local_knowledge"}}, {"type": "Feature", "id": 1342347368, "geometry": {"type": "Point", "coordinates": [-119.227371, 46.227988]}, "properties": {}}, {"type": "Feature", "id": 1342347369, "geometry": {"type": "Point", "coordinates": [-119.226833, 46.227604]}, "properties": {"brand": "JCPenney", "brand:wikidata": "Q920037", "brand:wikipedia": "en:JCPenney", "name": "JCPenney", "official_name": "J.C. Penney Company", "opening_hours": "Mo-Th 11:00-20:00; Fr-Sa 10:00-21:00; Su 11:00-19:00", "shop": "department_store", "source": "local_knowledge"}}, {"type": "Feature", "id": 1342347384, "geometry": {"type": "Point", "coordinates": [-119.226201, 46.226071]}, "properties": {"brand": "Macy's", "brand:wikidata": "Q629269", "brand:wikipedia": "en:Macy's", "name": "Macy's", "shop": "department_store", "source": "local_knowledge"}}, {"type": "Feature", "id": 1342347387, "geometry": {"type": "Point", "coordinates": [-119.227363, 46.22811]}, "properties": {}}, {"type": "Feature", "id": 1342347392, "geometry": {"type": "Point", "coordinates": [-119.22813, 46.226683]}, "properties": {}}, {"type": "Feature", "id": 1342347394, "geometry": {"type": "Point", "coordinates": [-119.226908, 46.228096]}, "properties": {}}, {"type": "Feature", "id": 1342347396, "geometry": {"type": "Point", "coordinates": [-119.2267, 46.224854]}, "properties": {"brand": "Barnes & Noble", "brand:wikidata": "Q795454", "brand:wikipedia": "en:Barnes & Noble", "name": "Barnes & Noble", "shop": "books", "source": "local_knowledge"}}, {"type": "Feature", "id": 1342347399, "geometry": {"type": "Point", "coordinates": [-119.226919, 46.227933]}, "properties": {}}, {"type": "Feature", "id": 4368595283, "geometry": {"type": "Point", "coordinates": [-119.226404, 46.225657]}, "properties": {}}, {"type": "Feature", "id": 4368595284, "geometry": {"type": "Point", "coordinates": [-119.226407, 46.225614]}, "properties": {}}, {"type": "Feature", "id": 6384191744, "geometry": {"type": "Point", "coordinates": [-119.228289, 46.226238]}, "properties": {"amenity": "fast_food", "drive_through": "no", "name": "Fruta Reyada El Rey", "takeaway": "only"}}, {"type": "Feature", "id": 6384191745, "geometry": {"type": "Point", "coordinates": [-119.228322, 46.225938]}, "properties": {"amenity": "fast_food", "cuisine": "thai", "drive_through": "no", "name": "Ruby Thai Kitchen"}}, {"type": "Feature", "id": 6384191746, "geometry": {"type": "Point", "coordinates": [-119.227446, 46.225918]}, "properties": {"brand": "Bath & Body Works", "brand:wikidata": "Q810773", "brand:wikipedia": "en:Bath & Body Works", "name": "Bath & Body Works", "shop": "cosmetics"}}, {"type": "Feature", "id": 6384191748, "geometry": {"type": "Point", "coordinates": [-119.22711, 46.226277]}, "properties": {"name": "Tresore Rare", "shop": "yes"}}, {"type": "Feature", "id": 6384191749, "geometry": {"type": "Point", "coordinates": [-119.228447, 46.226382]}, "properties": {"brand": "LensCrafters", "brand:wikidata": "Q6523209", "brand:wikipedia": "en:LensCrafters", "name": "LensCrafters", "shop": "optician"}}, {"type": "Feature", "id": 6384191750, "geometry": {"type": "Point", "coordinates": [-119.228413, 46.22601]}, "properties": {"amenity": "fast_food", "cuisine": "kebab", "drive_through": "no", "name": "Kabab-n-Grill", "takeaway": "only"}}, {"type": "Feature", "id": 6384191751, "geometry": {"type": "Point", "coordinates": [-119.227162, 46.225916]}, "properties": {"amenity": "fast_food", "brand": "Cinnabon", "brand:website": "https://www.cinnabon.com/", "brand:wikidata": "Q1092539", "brand:wikipedia": "en:Cinnabon", "cuisine": "dessert", "drive_through": "no", "name": "Cinnabon", "takeaway": "yes"}}, {"type": "Feature", "id": 6384191754, "geometry": {"type": "Point", "coordinates": [-119.228441, 46.22613]}, "properties": {"amenity": "fast_food", "brand": "Panda Express", "brand:wikidata": "Q1358690", "brand:wikipedia": "en:Panda Express", "cuisine": "chinese", "drive_through": "no", "name": "Panda Express", "takeaway": "only"}}, {"type": "Feature", "id": 6384191756, "geometry": {"type": "Point", "coordinates": [-119.227861, 46.225954]}, "properties": {"name": "Concept", "shop": "clothes"}}, {"type": "Feature", "id": 6384191758, "geometry": {"type": "Point", "coordinates": [-119.22816, 46.22579]}, "properties": {"brand": "Journeys", "brand:wikidata": "Q61994838", "brand:wikipedia": "en:Genesco", "name": "Journeys Kidz", "shop": "shoes"}}, {"type": "Feature", "id": 6384191759, "geometry": {"type": "Point", "coordinates": [-119.228096, 46.226544]}, "properties": {"brand": "See's Candies", "brand:wikidata": "Q2103510", "brand:wikipedia": "en:See's Candies", "name": "See's Candies", "shop": "confectionery"}}, {"type": "Feature", "id": 6384191760, "geometry": {"type": "Point", "coordinates": [-119.227088, 46.225912]}, "properties": {"amenity": "ice_cream", "name": "MyFroYo"}}, {"type": "Feature", "id": 6384191762, "geometry": {"type": "Point", "coordinates": [-119.227299, 46.226285]}, "properties": {"amenity": "cafe", "cuisine": "bubble_tea", "drive_through": "no", "name": "Pearl Tea"}}, {"type": "Feature", "id": 6384191763, "geometry": {"type": "Point", "coordinates": [-119.227018, 46.226286]}, "properties": {"name": "Ring Bar", "shop": "jewelry"}}, {"type": "Feature", "id": 6384191764, "geometry": {"type": "Point", "coordinates": [-119.227821, 46.226326]}, "properties": {"brand": "The Body Shop", "brand:wikidata": "Q837851", "brand:wikipedia": "en:The Body Shop", "name": "The Body Shop", "shop": "cosmetics"}}, {"type": "Feature", "id": 6384191765, "geometry": {"type": "Point", "coordinates": [-119.22819, 46.226603]}, "properties": {"name": "Free Culture Clothing", "shop": "clothes"}}, {"type": "Feature", "id": 6384191766, "geometry": {"type": "Point", "coordinates": [-119.227029, 46.225908]}, "properties": {"name": "Weisfield", "shop": "jewelry"}}, {"type": "Feature", "id": 6384191767, "geometry": {"type": "Point", "coordinates": [-119.227904, 46.226399]}, "properties": {"brand": "Vans", "brand:wikidata": "Q1135366", "brand:wikipedia": "en:Vans", "name": "Vans", "shop": "shoes"}}, {"type": "Feature", "id": 6384191768, "geometry": {"type": "Point", "coordinates": [-119.228054, 46.225852]}, "properties": {"brand": "GameStop", "brand:wikidata": "Q202210", "brand:wikipedia": "en:GameStop", "name": "GameStop", "shop": "video_games"}}, {"type": "Feature", "id": 6384191769, "geometry": {"type": "Point", "coordinates": [-119.228157, 46.226099]}, "properties": {"amenity": "food_court", "operator": "Columbia Center Mall"}}, {"type": "Feature", "id": 6384191770, "geometry": {"type": "Point", "coordinates": [-119.228366, 46.225973]}, "properties": {"amenity": "fast_food", "brand": "Sbarro", "brand:wikidata": "Q2589409", "brand:wikipedia": "en:Sbarro", "cuisine": "pizza", "drive_through": "no", "name": "Sbarro", "takeaway": "yes"}}, {"type": "Feature", "id": 6384191771, "geometry": {"type": "Point", "coordinates": [-119.227539, 46.225954]}, "properties": {"brand": "Lids", "brand:wikidata": "Q19841609", "brand:wikipedia": "en:Lids (store)", "clothes": "hats", "name": "Lids", "shop": "clothes"}}, {"type": "Feature", "id": 6384191772, "geometry": {"type": "Point", "coordinates": [-119.228353, 46.226299]}, "properties": {"name": "Epic Massage", "shop": "massage"}}, {"type": "Feature", "id": 6384191773, "geometry": {"type": "Point", "coordinates": [-119.228344, 46.226197]}, "properties": {"amenity": "fast_food", "cuisine": "burger;sandwich", "drive_through": "no", "name": "Bruchi's ChesSteaks & Subs", "takeaway": "only"}}, {"type": "Feature", "id": 6384191774, "geometry": {"type": "Point", "coordinates": [-119.228387, 46.226162]}, "properties": {"amenity": "fast_food", "drive_through": "no", "name": "Jalapeno Grill", "takeaway": "only"}}, {"type": "Feature", "id": 6384191775, "geometry": {"type": "Point", "coordinates": [-119.228019, 46.226476]}, "properties": {"name": "Inka's Sports", "shop": "clothes"}}, {"type": "Feature", "id": 6744230341, "geometry": {"type": "Point", "coordinates": [-119.227735, 46.226298]}, "properties": {"name": "Just Sports", "shop": "sports"}}, {"type": "Feature", "id": 6744230342, "geometry": {"type": "Point", "coordinates": [-119.227622, 46.226289]}, "properties": {"name": "His & Hers", "shop": "clothes"}}, {"type": "Feature", "id": 6744230343, "geometry": {"type": "Point", "coordinates": [-119.227517, 46.226289]}, "properties": {"brand": "Hot Topic", "brand:wikidata": "Q9294032", "brand:wikipedia": "en:Hot Topic", "name": "Hot Topic", "shop": "clothes"}}, {"type": "Feature", "id": 6744230344, "geometry": {"type": "Point", "coordinates": [-119.227402, 46.226281]}, "properties": {"brand": "Icing", "brand:wikidata": "Q108410029", "name": "Icing", "shop": "jewelry"}}, {"type": "Feature", "id": 6744230345, "geometry": {"type": "Point", "coordinates": [-119.227211, 46.226293]}, "properties": {"brand": "Cricket Wireless", "brand:wikidata": "Q5184987", "brand:wikipedia": "en:Cricket Wireless", "name": "Cricket Wireless", "shop": "mobile_phone", "short_name": "Cricket"}}, {"type": "Feature", "id": 6744230346, "geometry": {"type": "Point", "coordinates": [-119.227002, 46.226389]}, "properties": {"brand": "Pink", "brand:wikidata": "Q20716793", "brand:wikipedia": "en:Pink (Victoria's Secret)", "clothes": "underwear;women", "name": "Pink", "shop": "clothes"}}, {"type": "Feature", "id": 6744230347, "geometry": {"type": "Point", "coordinates": [-119.226992, 46.226502]}, "properties": {"brand": "Victoria's Secret", "brand:wikidata": "Q332477", "brand:wikipedia": "en:Victoria's Secret", "clothes": "underwear;women", "name": "Victoria's Secret", "shop": "clothes"}}, {"type": "Feature", "id": 6744230348, "geometry": {"type": "Point", "coordinates": [-119.227002, 46.226606]}, "properties": {"brand": "BoxLunch", "brand:wikidata": "Q21334594", "name": "BoxLunch", "shop": "gift"}}, {"type": "Feature", "id": 6744230349, "geometry": {"type": "Point", "coordinates": [-119.226986, 46.226705]}, "properties": {"brand": "Tillys", "brand:wikidata": "Q7802889", "brand:wikipedia": "en:Tillys", "clothes": "children;men;women", "name": "Tillys", "shop": "clothes"}}, {"type": "Feature", "id": 6744230350, "geometry": {"type": "Point", "coordinates": [-119.22697, 46.226808]}, "properties": {"brand": "Champs Sports", "brand:wikidata": "Q2955924", "brand:wikipedia": "en:Champs Sports", "name": "Champs Sports", "shop": "sports"}}, {"type": "Feature", "id": 6744230351, "geometry": {"type": "Point", "coordinates": [-119.227359, 46.227156]}, "properties": {"name": "PlayLive Nation", "shop": "yes"}}, {"type": "Feature", "id": 6744230352, "geometry": {"type": "Point", "coordinates": [-119.227222, 46.227159]}, "properties": {"beauty": "nails", "name": "Hi-Tek Nail Salon", "shop": "beauty"}}, {"type": "Feature", "id": 6744230353, "geometry": {"type": "Point", "coordinates": [-119.227013, 46.227148]}, "properties": {"brand": "Kay Jewelers", "brand:wikidata": "Q62029290", "name": "Kay Jewelers", "shop": "jewelry"}}, {"type": "Feature", "id": 6744230354, "geometry": {"type": "Point", "coordinates": [-119.226557, 46.227163]}, "properties": {"amenity": "fast_food", "brand": "Auntie Anne's", "brand:wikidata": "Q4822010", "brand:wikipedia": "en:Auntie Anne's", "cuisine": "pretzel", "name": "Auntie Anne's", "takeaway": "yes"}}, {"type": "Feature", "id": 6744230356, "geometry": {"type": "Point", "coordinates": [-119.226648, 46.227052]}, "properties": {"brand": "Hollister", "brand:wikidata": "Q1257477", "brand:wikipedia": "en:Hollister Co.", "name": "Hollister", "official_name": "Hollister Co.", "shop": "clothes"}}, {"type": "Feature", "id": 6744230357, "geometry": {"type": "Point", "coordinates": [-119.226659, 46.226957]}, "properties": {"brand": "Coach", "brand:wikidata": "Q727697", "brand:wikipedia": "en:Coach New York", "name": "Coach", "shop": "bag"}}, {"type": "Feature", "id": 6744230358, "geometry": {"type": "Point", "coordinates": [-119.226654, 46.226818]}, "properties": {"alt_name": "Children's Place", "brand": "The Children's Place", "brand:wikidata": "Q3520257", "brand:wikipedia": "en:The Children's Place", "name": "The Children's Place", "shop": "clothes"}}, {"type": "Feature", "id": 6744230359, "geometry": {"type": "Point", "coordinates": [-119.226662, 46.226694]}, "properties": {"brand": "Zales", "brand:wikidata": "Q8065305", "brand:wikipedia": "en:Zale Corporation", "name": "Zales", "shop": "jewelry"}}, {"type": "Feature", "id": 6744230360, "geometry": {"type": "Point", "coordinates": [-119.226678, 46.22656]}, "properties": {"brand": "American Eagle Outfitters", "brand:wikidata": "Q2842931", "brand:wikipedia": "en:American Eagle Outfitters", "clothes": "men;women", "name": "American Eagle Outfitters", "shop": "clothes", "short_name": "American Eagle"}}, {"type": "Feature", "id": 6744230361, "geometry": {"type": "Point", "coordinates": [-119.226699, 46.226439]}, "properties": {"brand": "Buckle", "brand:wikidata": "Q4983306", "brand:wikipedia": "en:Buckle (clothing retailer)", "clothes": "men;women;children", "name": "Buckle", "shop": "clothes"}}, {"type": "Feature", "id": 6744230362, "geometry": {"type": "Point", "coordinates": [-119.226082, 46.22659]}, "properties": {"brand": "Sleep Number", "brand:wikidata": "Q7447640", "brand:wikipedia": "en:Sleep Number", "name": "Sleep Number", "shop": "bed"}}, {"type": "Feature", "id": 6744230363, "geometry": {"type": "Point", "coordinates": [-119.226077, 46.226721]}, "properties": {"amenity": "restaurant", "name": "Twigs Bistro & Martini Bar"}}, {"type": "Feature", "id": 6744230364, "geometry": {"type": "Point", "coordinates": [-119.226208, 46.227142]}, "properties": {"beauty": "hair;nails;skin_care;massage", "brand": "Sola Salons", "brand:wikidata": "Q64337426", "name": "Sola Salons", "shop": "beauty"}}, {"type": "Feature", "id": 6744230365, "geometry": {"type": "Point", "coordinates": [-119.226048, 46.226918]}, "properties": {"brand": "Loft", "brand:wikidata": "Q62075137", "clothes": "women", "name": "Loft", "shop": "clothes"}}, {"type": "Feature", "id": 6744230366, "geometry": {"type": "Point", "coordinates": [-119.226736, 46.225741]}, "properties": {"brand": "Foot Locker", "brand:wikidata": "Q63335", "brand:wikipedia": "en:Foot Locker", "name": "Foot Locker", "shop": "shoes"}}, {"type": "Feature", "id": 6744230367, "geometry": {"type": "Point", "coordinates": [-119.226758, 46.225674]}, "properties": {"brand": "Zumiez", "brand:wikidata": "Q8075252", "brand:wikipedia": "en:Zumiez", "name": "Zumiez", "shop": "clothes"}}, {"type": "Feature", "id": 6744230368, "geometry": {"type": "Point", "coordinates": [-119.226768, 46.225506]}, "properties": {"brand": "T-Mobile", "brand:wikidata": "Q3511885", "brand:wikipedia": "en:T-Mobile US", "name": "T-Mobile", "shop": "mobile_phone"}}, {"type": "Feature", "id": 6744230369, "geometry": {"type": "Point", "coordinates": [-119.226768, 46.225325]}, "properties": {"brand": "Maurices", "brand:wikidata": "Q6793571", "brand:wikipedia": "en:Maurices", "clothes": "women", "name": "Maurices", "shop": "clothes"}}, {"type": "Feature", "id": 6744230370, "geometry": {"type": "Point", "coordinates": [-119.226767, 46.225429]}, "properties": {"beauty": "skin_care;waxing;eyebrow;eyelash", "brand": "Brow Studio 7", "brand:wikidata": "Q108410558", "name": "Brow Studio 7", "shop": "beauty"}}, {"type": "Feature", "id": 6744230371, "geometry": {"type": "Point", "coordinates": [-119.226183, 46.225251]}, "properties": {"brand": "Chico's", "brand:wikidata": "Q5096393", "brand:wikipedia": "en:Chico's FAS", "name": "Chico's", "shop": "clothes"}}, {"type": "Feature", "id": 6744230372, "geometry": {"type": "Point", "coordinates": [-119.226169, 46.225383]}, "properties": {"brand": "Sephora", "brand:wikidata": "Q2408041", "brand:wikipedia": "en:Sephora", "name": "Sephora", "shop": "cosmetics"}}, {"type": "Feature", "id": 6744230373, "geometry": {"type": "Point", "coordinates": [-119.22616, 46.225484]}, "properties": {"alt_name": "Verizon Wireless", "brand": "Verizon", "brand:wikidata": "Q919641", "brand:wikipedia": "en:Verizon (mobile network)", "name": "Verizon", "shop": "mobile_phone"}}, {"type": "Feature", "id": 6744230374, "geometry": {"type": "Point", "coordinates": [-119.227281, 46.224899]}, "properties": {"brand": "Dick's Sporting Goods", "brand:wikidata": "Q5272601", "brand:wikipedia": "en:Dick's Sporting Goods", "name": "Dick's Sporting Goods", "shop": "sports"}}, {"type": "Feature", "id": 6744230375, "geometry": {"type": "Point", "coordinates": [-119.227258, 46.225306]}, "properties": {"brand": "Old Navy", "brand:wikidata": "Q2735242", "brand:wikipedia": "en:Old Navy", "name": "Old Navy", "shop": "clothes"}}, {"type": "Feature", "id": 6744230376, "geometry": {"type": "Point", "coordinates": [-119.22706, 46.225397]}, "properties": {"branch": "Fashions", "brand": "Windsor", "brand:wikidata": "Q72981668", "clothes": "women", "name": "Windsor", "shop": "clothes"}}, {"type": "Feature", "id": 6744230377, "geometry": {"type": "Point", "coordinates": [-119.22705, 46.225477]}, "properties": {"brand": "Torrid", "brand:wikidata": "Q7827120", "brand:wikipedia": "en:Torrid (clothing retailer)", "clothes": "oversize;women", "name": "Torrid", "shop": "clothes"}}, {"type": "Feature", "id": 6744230378, "geometry": {"type": "Point", "coordinates": [-119.227047, 46.225559]}, "properties": {"brand": "Eddie Bauer", "brand:wikidata": "Q842174", "brand:wikipedia": "en:Eddie Bauer", "name": "Eddie Bauer", "shop": "clothes"}}, {"type": "Feature", "id": 6744230380, "geometry": {"type": "Point", "coordinates": [-119.227025, 46.22578]}, "properties": {"brand": "claire's", "brand:wikidata": "Q2974996", "brand:wikipedia": "en:Claire's", "name": "claire's", "shop": "fashion_accessories"}}, {"type": "Feature", "id": 6744230381, "geometry": {"type": "Point", "coordinates": [-119.227292, 46.225916]}, "properties": {"branch": "Collections", "brand": "Francesca's", "brand:wikidata": "Q72982331", "clothes": "women;luxury", "name": "Francesca's", "shop": "clothes"}}, {"type": "Feature", "id": 6744230382, "geometry": {"type": "Point", "coordinates": [-119.228237, 46.225743]}, "properties": {"brand": "Spencer Gifts", "brand:wikidata": "Q7576055", "brand:wikipedia": "en:Spencer Gifts", "name": "Spencer's", "official_name": "Spencer Gifts", "shop": "gift"}}, {"type": "Feature", "id": 6744230383, "geometry": {"type": "Point", "coordinates": [-119.228285, 46.225711]}, "properties": {"brand": "Journeys", "brand:wikidata": "Q61994838", "name": "Journeys", "shop": "shoes"}}, {"type": "Feature", "id": 6744230384, "geometry": {"type": "Point", "coordinates": [-119.228344, 46.225677]}, "properties": {"name": "International Order of Rainbow Girls", "shop": "yes"}}, {"type": "Feature", "id": 6744281385, "geometry": {"type": "Point", "coordinates": [-119.228393, 46.22565]}, "properties": {"name": "Biggest Little Shop of Fun", "shop": "yes"}}, {"type": "Feature", "id": 6744281386, "geometry": {"type": "Point", "coordinates": [-119.228446, 46.225449]}, "properties": {"name": "Polka Dot Pottery", "shop": "yes"}}, {"type": "Feature", "id": 6744281387, "geometry": {"type": "Point", "coordinates": [-119.228523, 46.225514]}, "properties": {"name": "Harry Richie Jewelers", "shop": "jewelry"}}, {"type": "Feature", "id": 6744281388, "geometry": {"type": "Point", "coordinates": [-119.228553, 46.225789]}, "properties": {"brand": "T-Mobile", "brand:wikidata": "Q3511885", "brand:wikipedia": "en:T-Mobile US", "name": "T-Mobile", "shop": "mobile_phone"}}, {"type": "Feature", "id": 6744281389, "geometry": {"type": "Point", "coordinates": [-119.22843, 46.225869]}, "properties": {"brand": "Aeropostale", "brand:wikidata": "Q794565", "brand:wikipedia": "en:A\u00e9ropostale (clothing)", "clothes": "men;women", "name": "Aeropostale", "shop": "clothes"}}, {"type": "Feature", "id": 6814605941, "geometry": {"type": "Point", "coordinates": [-119.228206, 46.225898]}, "properties": {"amenity": "bureau_de_change", "level": "0", "name": "zzBit", "note": "Exchange USD for BitCoins"}}, {"type": "Feature", "id": 7288862715, "geometry": {"type": "Point", "coordinates": [-119.22648, 46.224768]}, "properties": {"amenity": "cafe", "brand": "Starbucks", "brand:wikidata": "Q37158", "brand:wikipedia": "en:Starbucks", "cuisine": "coffee_shop", "drive_through": "no", "name": "Starbucks", "note": "Located inside of Barnes & Noble", "official_name": "Starbucks Coffee", "outdoor_seating": "no", "takeaway": "yes"}}, {"type": "Feature", "id": 7288870005, "geometry": {"type": "Point", "coordinates": [-119.226442, 46.225165]}, "properties": {}}, {"type": "Feature", "id": 7288870006, "geometry": {"type": "Point", "coordinates": [-119.226438, 46.225237]}, "properties": {}}, {"type": "Feature", "id": 7288870007, "geometry": {"type": "Point", "coordinates": [-119.226385, 46.225235]}, "properties": {}}, {"type": "Feature", "id": 7288870008, "geometry": {"type": "Point", "coordinates": [-119.226388, 46.225188]}, "properties": {}}, {"type": "Feature", "id": 7288870009, "geometry": {"type": "Point", "coordinates": [-119.226141, 46.225171]}, "properties": {}}, {"type": "Feature", "id": 7288870010, "geometry": {"type": "Point", "coordinates": [-119.226103, 46.225168]}, "properties": {}}, {"type": "Feature", "id": 7288870011, "geometry": {"type": "Point", "coordinates": [-119.226073, 46.225187]}, "properties": {}}, {"type": "Feature", "id": 7288870012, "geometry": {"type": "Point", "coordinates": [-119.226071, 46.225213]}, "properties": {}}, {"type": "Feature", "id": 7288870013, "geometry": {"type": "Point", "coordinates": [-119.226096, 46.225235]}, "properties": {}}, {"type": "Feature", "id": 7288870014, "geometry": {"type": "Point", "coordinates": [-119.226339, 46.226517]}, "properties": {}}, {"type": "Feature", "id": 7288870015, "geometry": {"type": "Point", "coordinates": [-119.226083, 46.226509]}, "properties": {}}, {"type": "Feature", "id": 7288870016, "geometry": {"type": "Point", "coordinates": [-119.226053, 46.226488]}, "properties": {}}, {"type": "Feature", "id": 7288870017, "geometry": {"type": "Point", "coordinates": [-119.226004, 46.226568]}, "properties": {}}, {"type": "Feature", "id": 7288870018, "geometry": {"type": "Point", "coordinates": [-119.22598, 46.226545]}, "properties": {}}, {"type": "Feature", "id": 7288870019, "geometry": {"type": "Point", "coordinates": [-119.225979, 46.226507]}, "properties": {}}, {"type": "Feature", "id": 7288870020, "geometry": {"type": "Point", "coordinates": [-119.226012, 46.226485]}, "properties": {}}, {"type": "Feature", "id": 7288870021, "geometry": {"type": "Point", "coordinates": [-119.225964, 46.227103]}, "properties": {}}, {"type": "Feature", "id": 7288870022, "geometry": {"type": "Point", "coordinates": [-119.225929, 46.227112]}, "properties": {}}, {"type": "Feature", "id": 7288870023, "geometry": {"type": "Point", "coordinates": [-119.225907, 46.227131]}, "properties": {}}, {"type": "Feature", "id": 7288870024, "geometry": {"type": "Point", "coordinates": [-119.225905, 46.227158]}, "properties": {}}, {"type": "Feature", "id": 7288870025, "geometry": {"type": "Point", "coordinates": [-119.225925, 46.227182]}, "properties": {}}, {"type": "Feature", "id": 7288870026, "geometry": {"type": "Point", "coordinates": [-119.225962, 46.227193]}, "properties": {}}, {"type": "Feature", "id": 7288870027, "geometry": {"type": "Point", "coordinates": [-119.226, 46.227186]}, "properties": {}}, {"type": "Feature", "id": 7288870028, "geometry": {"type": "Point", "coordinates": [-119.226026, 46.227165]}, "properties": {}}, {"type": "Feature", "id": 7288870029, "geometry": {"type": "Point", "coordinates": [-119.226122, 46.227206]}, "properties": {}}, {"type": "Feature", "id": 7288870030, "geometry": {"type": "Point", "coordinates": [-119.22631, 46.227212]}, "properties": {}}, {"type": "Feature", "id": 7288870031, "geometry": {"type": "Point", "coordinates": [-119.226133, 46.227441]}, "properties": {}}, {"type": "Feature", "id": 7288870032, "geometry": {"type": "Point", "coordinates": [-119.22608, 46.227439]}, "properties": {}}, {"type": "Feature", "id": 7288870033, "geometry": {"type": "Point", "coordinates": [-119.226062, 46.227696]}, "properties": {}}, {"type": "Feature", "id": 7288870034, "geometry": {"type": "Point", "coordinates": [-119.226096, 46.227907]}, "properties": {}}, {"type": "Feature", "id": 7288870035, "geometry": {"type": "Point", "coordinates": [-119.227519, 46.227955]}, "properties": {}}, {"type": "Feature", "id": 7288870036, "geometry": {"type": "Point", "coordinates": [-119.227528, 46.227955]}, "properties": {}}, {"type": "Feature", "id": 7288870037, "geometry": {"type": "Point", "coordinates": [-119.227394, 46.227247]}, "properties": {}}, {"type": "Feature", "id": 7288870038, "geometry": {"type": "Point", "coordinates": [-119.227405, 46.227247]}, "properties": {}}, {"type": "Feature", "id": 7288870039, "geometry": {"type": "Point", "coordinates": [-119.227413, 46.227128]}, "properties": {}}, {"type": "Feature", "id": 7288870040, "geometry": {"type": "Point", "coordinates": [-119.227512, 46.227131]}, "properties": {}}, {"type": "Feature", "id": 7288870041, "geometry": {"type": "Point", "coordinates": [-119.228278, 46.226853]}, "properties": {}}, {"type": "Feature", "id": 7288870042, "geometry": {"type": "Point", "coordinates": [-119.228264, 46.226861]}, "properties": {}}, {"type": "Feature", "id": 7288870043, "geometry": {"type": "Point", "coordinates": [-119.228341, 46.22692]}, "properties": {}}, {"type": "Feature", "id": 7288870044, "geometry": {"type": "Point", "coordinates": [-119.228358, 46.2269]}, "properties": {}}, {"type": "Feature", "id": 7288870045, "geometry": {"type": "Point", "coordinates": [-119.228816, 46.22689]}, "properties": {}}, {"type": "Feature", "id": 7288870046, "geometry": {"type": "Point", "coordinates": [-119.228933, 46.226819]}, "properties": {}}, {"type": "Feature", "id": 7288870047, "geometry": {"type": "Point", "coordinates": [-119.228826, 46.226898]}, "properties": {}}, {"type": "Feature", "id": 7288870048, "geometry": {"type": "Point", "coordinates": [-119.228943, 46.226827]}, "properties": {}}, {"type": "Feature", "id": 7288870049, "geometry": {"type": "Point", "coordinates": [-119.228887, 46.226862]}, "properties": {"entrance": "shop"}}, {"type": "Feature", "id": 7288870050, "geometry": {"type": "Point", "coordinates": [-119.228571, 46.226049]}, "properties": {}}, {"type": "Feature", "id": 7288870051, "geometry": {"type": "Point", "coordinates": [-119.228558, 46.226039]}, "properties": {}}, {"type": "Feature", "id": 7288870052, "geometry": {"type": "Point", "coordinates": [-119.229202, 46.225902]}, "properties": {}}, {"type": "Feature", "id": 7288870053, "geometry": {"type": "Point", "coordinates": [-119.229363, 46.225804]}, "properties": {}}, {"type": "Feature", "id": 7288870054, "geometry": {"type": "Point", "coordinates": [-119.229385, 46.225821]}, "properties": {}}, {"type": "Feature", "id": 7288870055, "geometry": {"type": "Point", "coordinates": [-119.229226, 46.225921]}, "properties": {}}, {"type": "Feature", "id": 7288870056, "geometry": {"type": "Point", "coordinates": [-119.229581, 46.225132]}, "properties": {}}, {"type": "Feature", "id": 7288870057, "geometry": {"type": "Point", "coordinates": [-119.229441, 46.225024]}, "properties": {}}, {"type": "Feature", "id": 7288870058, "geometry": {"type": "Point", "coordinates": [-119.229411, 46.225043]}, "properties": {}}, {"type": "Feature", "id": 7288870059, "geometry": {"type": "Point", "coordinates": [-119.228803, 46.225085]}, "properties": {}}, {"type": "Feature", "id": 7288870060, "geometry": {"type": "Point", "coordinates": [-119.228784, 46.22507]}, "properties": {}}, {"type": "Feature", "id": 7288870061, "geometry": {"type": "Point", "coordinates": [-119.228637, 46.225161]}, "properties": {}}, {"type": "Feature", "id": 7288870062, "geometry": {"type": "Point", "coordinates": [-119.228662, 46.225181]}, "properties": {}}, {"type": "Feature", "id": 7288870063, "geometry": {"type": "Point", "coordinates": [-119.228317, 46.225468]}, "properties": {}}, {"type": "Feature", "id": 7288870064, "geometry": {"type": "Point", "coordinates": [-119.228277, 46.225497]}, "properties": {}}, {"type": "Feature", "id": 7288870065, "geometry": {"type": "Point", "coordinates": [-119.228288, 46.225446]}, "properties": {}}, {"type": "Feature", "id": 7288870066, "geometry": {"type": "Point", "coordinates": [-119.228245, 46.225472]}, "properties": {}}, {"type": "Feature", "id": 7288870067, "geometry": {"type": "Point", "coordinates": [-119.227644, 46.225242]}, "properties": {}}, {"type": "Feature", "id": 7288870068, "geometry": {"type": "Point", "coordinates": [-119.227619, 46.22519]}, "properties": {}}, {"type": "Feature", "id": 7288870069, "geometry": {"type": "Point", "coordinates": [-119.227571, 46.225188]}, "properties": {}}, {"type": "Feature", "id": 7288870070, "geometry": {"type": "Point", "coordinates": [-119.227573, 46.225155]}, "properties": {}}, {"type": "Feature", "id": 7288870071, "geometry": {"type": "Point", "coordinates": [-119.227857, 46.225167]}, "properties": {}}, {"type": "Feature", "id": 9338290210, "geometry": {"type": "Point", "coordinates": [-119.227118, 46.227157]}, "properties": {"name": "City of Kennewick", "office": "government"}}, {"type": "Feature", "id": 9338290214, "geometry": {"type": "Point", "coordinates": [-119.226965, 46.226994]}, "properties": {"brand": "Forever 21", "brand:wikidata": "Q1060537", "brand:wikipedia": "en:Forever 21", "name": "Forever 21", "shop": "clothes"}}, {"type": "Feature", "id": 9338290215, "geometry": {"type": "Point", "coordinates": [-119.228359, 46.225902]}, "properties": {"amenity": "fast_food", "brand": "Auntie Anne's", "brand:wikidata": "Q4822010", "brand:wikipedia": "en:Auntie Anne's", "cuisine": "pretzel", "name": "Auntie Anne's", "takeaway": "yes"}}, {"type": "Feature", "id": 9338290216, "geometry": {"type": "Point", "coordinates": [-119.226772, 46.2256]}, "properties": {"name": "Attic Salt", "shop": "clothes"}}, {"type": "Feature", "id": 9338325617, "geometry": {"type": "Point", "coordinates": [-119.226745, 46.225816]}, "properties": {"name": "Get In Where You Fit In", "shop": "clothes"}}, {"type": "Feature", "id": 11088494109, "geometry": {"type": "Point", "coordinates": [-119.229479, 46.225731]}, "properties": {"access": "private", "entrance": "yes"}}, {"type": "Feature", "id": 11088494110, "geometry": {"type": "Point", "coordinates": [-119.229307, 46.225869]}, "properties": {"access": "private", "entrance": "yes"}}, {"type": "Feature", "id": 11088494111, "geometry": {"type": "Point", "coordinates": [-119.228299, 46.226888]}, "properties": {"entrance": "shop"}}, {"type": "Feature", "id": 11088494112, "geometry": {"type": "Point", "coordinates": [-119.227519, 46.227006]}, "properties": {"description": "Columbia Center Mall management office.", "entrance": "office", "opening_hours": "Mo-Fr 08:00-17:00"}}, {"type": "Feature", "id": 11088494113, "geometry": {"type": "Point", "coordinates": [-119.22739, 46.227296]}, "properties": {"access": "yes", "entrance": "yes"}}, {"type": "Feature", "id": 11088494114, "geometry": {"type": "Point", "coordinates": [-119.227549, 46.22765]}, "properties": {"entrance": "shop", "note": "This entrance closes early Monday thru Saturday at 7pm (19:00) and Sunday at 6pm (18:00)."}}, {"type": "Feature", "id": 11088494140, "geometry": {"type": "Point", "coordinates": [-119.227071, 46.228101]}, "properties": {"entrance": "shop", "name": "Salon Entrance"}}, {"type": "Feature", "id": 11088494141, "geometry": {"type": "Point", "coordinates": [-119.227068, 46.228028]}, "properties": {"shop": "hairdresser"}}, {"type": "Feature", "id": 11088494157, "geometry": {"type": "Point", "coordinates": [-119.22607, 46.227579]}, "properties": {"entrance": "shop"}}, {"type": "Feature", "id": 11088494158, "geometry": {"type": "Point", "coordinates": [-119.226306, 46.227261]}, "properties": {"access": "yes", "entrance": "yes"}}, {"type": "Feature", "id": 11088494159, "geometry": {"type": "Point", "coordinates": [-119.226198, 46.227208]}, "properties": {"entrance": "shop"}}, {"type": "Feature", "id": 11088494160, "geometry": {"type": "Point", "coordinates": [-119.225915, 46.22717]}, "properties": {"entrance": "shop"}}, {"type": "Feature", "id": 11088494161, "geometry": {"type": "Point", "coordinates": [-119.225976, 46.226946]}, "properties": {"entrance": "shop"}}, {"type": "Feature", "id": 11088494162, "geometry": {"type": "Point", "coordinates": [-119.225992, 46.226724]}, "properties": {"entrance": "shop"}}, {"type": "Feature", "id": 11088494163, "geometry": {"type": "Point", "coordinates": [-119.226002, 46.226599]}, "properties": {"entrance": "shop"}}, {"type": "Feature", "id": 11088494164, "geometry": {"type": "Point", "coordinates": [-119.226295, 46.226433]}, "properties": {"entrance": "shop", "level": "1"}}, {"type": "Feature", "id": 11088494166, "geometry": {"type": "Point", "coordinates": [-119.225876, 46.226027]}, "properties": {"entrance": "shop", "level": "0"}}, {"type": "Feature", "id": 11088494167, "geometry": {"type": "Point", "coordinates": [-119.225892, 46.225784]}, "properties": {"entrance": "shop", "level": "0"}}, {"type": "Feature", "id": 11088494168, "geometry": {"type": "Point", "coordinates": [-119.226348, 46.225655]}, "properties": {"entrance": "shop", "level": "1"}}, {"type": "Feature", "id": 11088494170, "geometry": {"type": "Point", "coordinates": [-119.226074, 46.225581]}, "properties": {"access": "private", "entrance": "yes"}}, {"type": "Feature", "id": 11088494171, "geometry": {"type": "Point", "coordinates": [-119.22608, 46.225488]}, "properties": {"entrance": "shop"}}, {"type": "Feature", "id": 11088494172, "geometry": {"type": "Point", "coordinates": [-119.226088, 46.22537]}, "properties": {"entrance": "shop"}}, {"type": "Feature", "id": 11088494173, "geometry": {"type": "Point", "coordinates": [-119.226095, 46.225247]}, "properties": {"entrance": "shop"}}, {"type": "Feature", "id": 11088494174, "geometry": {"type": "Point", "coordinates": [-119.226461, 46.225118]}, "properties": {"access": "yes", "entrance": "yes"}}, {"type": "Feature", "id": 11088494175, "geometry": {"type": "Point", "coordinates": [-119.226315, 46.22484]}, "properties": {"entrance": "shop"}}, {"type": "Feature", "id": 11088494176, "geometry": {"type": "Point", "coordinates": [-119.227353, 46.224647]}, "properties": {"entrance": "shop"}}, {"type": "Feature", "id": 11088494178, "geometry": {"type": "Point", "coordinates": [-119.228265, 46.22546]}, "properties": {"access": "yes", "entrance": "yes"}}, {"type": "Feature", "id": 11088494179, "geometry": {"type": "Point", "coordinates": [-119.228849, 46.22523]}, "properties": {"brand": "JOANN Fabrics and Crafts", "brand:wikidata": "Q6203968", "name": "JOANN Fabrics and Crafts", "opening_hours": "Mo-Sa 09:00-21:00; Su 10:00-18:00", "shop": "craft", "short_name": "JOANN"}}, {"type": "Feature", "id": 11088494180, "geometry": {"type": "Point", "coordinates": [-119.228702, 46.225121]}, "properties": {"entrance": "shop"}}, {"type": "Feature", "id": 11088494182, "geometry": {"type": "Point", "coordinates": [-119.229512, 46.225079]}, "properties": {"access": "private", "entrance": "yes"}}]}