{"type": "FeatureCollection", "features": [{"type": "Feature", "id": 387554350, "geometry": {"type": "Point", "coordinates": [-122.171009, 47.575619]}, "properties": {}}, {"type": "Feature", "id": 387554354, "geometry": {"type": "Point", "coordinates": [-122.171755, 47.575494]}, "properties": {}}, {"type": "Feature", "id": 387554355, "geometry": {"type": "Point", "coordinates": [-122.17188, 47.575496]}, "properties": {}}, {"type": "Feature", "id": 387554356, "geometry": {"type": "Point", "coordinates": [-122.171883, 47.575913]}, "properties": {}}, {"type": "Feature", "id": 387554357, "geometry": {"type": "Point", "coordinates": [-122.17202, 47.575913]}, "properties": {}}, {"type": "Feature", "id": 387554358, "geometry": {"type": "Point", "coordinates": [-122.172019, 47.575858]}, "properties": {}}, {"type": "Feature", "id": 387554359, "geometry": {"type": "Point", "coordinates": [-122.172539, 47.575858]}, "properties": {}}, {"type": "Feature", "id": 387554360, "geometry": {"type": "Point", "coordinates": [-122.172537, 47.575204]}, "properties": {}}, {"type": "Feature", "id": 387554361, "geometry": {"type": "Point", "coordinates": [-122.172474, 47.575162]}, "properties": {}}, {"type": "Feature", "id": 387554362, "geometry": {"type": "Point", "coordinates": [-122.172179, 47.575161]}, "properties": {}}, {"type": "Feature", "id": 387554363, "geometry": {"type": "Point", "coordinates": [-122.172178, 47.575025]}, "properties": {}}, {"type": "Feature", "id": 387554364, "geometry": {"type": "Point", "coordinates": [-122.172394, 47.575025]}, "properties": {}}, {"type": "Feature", "id": 387554365, "geometry": {"type": "Point", "coordinates": [-122.172384, 47.574232]}, "properties": {}}, {"type": "Feature", "id": 387554366, "geometry": {"type": "Point", "coordinates": [-122.173247, 47.574236]}, "properties": {}}, {"type": "Feature", "id": 387554367, "geometry": {"type": "Point", "coordinates": [-122.173271, 47.574217]}, "properties": {}}, {"type": "Feature", "id": 387554368, "geometry": {"type": "Point", "coordinates": [-122.173379, 47.574218]}, "properties": {}}, {"type": "Feature", "id": 387554369, "geometry": {"type": "Point", "coordinates": [-122.173436, 47.57418]}, "properties": {}}, {"type": "Feature", "id": 387554370, "geometry": {"type": "Point", "coordinates": [-122.174092, 47.57418]}, "properties": {}}, {"type": "Feature", "id": 387554371, "geometry": {"type": "Point", "coordinates": [-122.174093, 47.573572]}, "properties": {}}, {"type": "Feature", "id": 387554372, "geometry": {"type": "Point", "coordinates": [-122.17416, 47.573572]}, "properties": {}}, {"type": "Feature", "id": 387554373, "geometry": {"type": "Point", "coordinates": [-122.174161, 47.573125]}, "properties": {}}, {"type": "Feature", "id": 387554374, "geometry": {"type": "Point", "coordinates": [-122.173782, 47.573124]}, "properties": {}}, {"type": "Feature", "id": 387554375, "geometry": {"type": "Point", "coordinates": [-122.173781, 47.573232]}, "properties": {}}, {"type": "Feature", "id": 387554376, "geometry": {"type": "Point", "coordinates": [-122.173694, 47.573233]}, "properties": {}}, {"type": "Feature", "id": 387554377, "geometry": {"type": "Point", "coordinates": [-122.173693, 47.573268]}, "properties": {}}, {"type": "Feature", "id": 387554378, "geometry": {"type": "Point", "coordinates": [-122.173481, 47.573267]}, "properties": {}}, {"type": "Feature", "id": 387554379, "geometry": {"type": "Point", "coordinates": [-122.173484, 47.573511]}, "properties": {}}, {"type": "Feature", "id": 387554380, "geometry": {"type": "Point", "coordinates": [-122.17297, 47.573512]}, "properties": {}}, {"type": "Feature", "id": 387554381, "geometry": {"type": "Point", "coordinates": [-122.172783, 47.573638]}, "properties": {}}, {"type": "Feature", "id": 387554382, "geometry": {"type": "Point", "coordinates": [-122.172782, 47.573867]}, "properties": {}}, {"type": "Feature", "id": 387554383, "geometry": {"type": "Point", "coordinates": [-122.172673, 47.573866]}, "properties": {}}, {"type": "Feature", "id": 387554384, "geometry": {"type": "Point", "coordinates": [-122.172673, 47.573813]}, "properties": {}}, {"type": "Feature", "id": 387554385, "geometry": {"type": "Point", "coordinates": [-122.172865, 47.573331]}, "properties": {}}, {"type": "Feature", "id": 387554392, "geometry": {"type": "Point", "coordinates": [-122.172255, 47.57322]}, "properties": {}}, {"type": "Feature", "id": 387554393, "geometry": {"type": "Point", "coordinates": [-122.172089, 47.573222]}, "properties": {}}, {"type": "Feature", "id": 387554395, "geometry": {"type": "Point", "coordinates": [-122.171789, 47.573834]}, "properties": {}}, {"type": "Feature", "id": 387554396, "geometry": {"type": "Point", "coordinates": [-122.171681, 47.573834]}, "properties": {}}, {"type": "Feature", "id": 387554397, "geometry": {"type": "Point", "coordinates": [-122.171682, 47.573496]}, "properties": {}}, {"type": "Feature", "id": 387554398, "geometry": {"type": "Point", "coordinates": [-122.171034, 47.573502]}, "properties": {}}, {"type": "Feature", "id": 387554399, "geometry": {"type": "Point", "coordinates": [-122.171028, 47.573937]}, "properties": {}}, {"type": "Feature", "id": 387554400, "geometry": {"type": "Point", "coordinates": [-122.170997, 47.574028]}, "properties": {}}, {"type": "Feature", "id": 1038707356, "geometry": {"type": "Point", "coordinates": [-122.173425, 47.57385]}, "properties": {"brand": "Target", "brand:wikidata": "Q1046951", "brand:wikipedia": "en:Target Corporation", "internet_access": "wlan", "internet_access:fee": "customers", "internet_access:ssid": "Target Guest Wi-Fi", "name": "Target", "opening_hours": "Mo-Su 08:00-22:00", "shop": "department_store", "source:name": "Factoria Mall", "wheelchair": "yes"}}, {"type": "Feature", "id": 1038707361, "geometry": {"type": "Point", "coordinates": [-122.172165, 47.575513]}, "properties": {"brand": "Nordstrom Rack", "brand:wikidata": "Q21463374", "brand:wikipedia": "en:Nordstrom Rack", "name": "Nordstrom Rack", "opening_hours": "Mo-Sa 10:00-20:00; Su 11:00-19:00", "shop": "clothes", "source:name": "Factoria Mall", "wheelchair": "yes"}}, {"type": "Feature", "id": 1038707394, "geometry": {"type": "Point", "coordinates": [-122.17226, 47.574434]}, "properties": {"brand": "TJ Maxx", "brand:wikidata": "Q10860683", "brand:wikipedia": "en:TJ Maxx", "name": "TJ Maxx", "shop": "department_store", "source:name": "Factoria Mall", "wheelchair": "yes"}}, {"type": "Feature", "id": 1038707454, "geometry": {"type": "Point", "coordinates": [-122.17123, 47.573708]}, "properties": {"brand": "Old Navy", "brand:wikidata": "Q2735242", "brand:wikipedia": "en:Old Navy", "name": "Old Navy", "shop": "clothes", "source:name": "Factoria Mall", "wheelchair": "yes"}}, {"type": "Feature", "id": 1038707475, "geometry": {"type": "Point", "coordinates": [-122.171082, 47.575509]}, "properties": {"amenity": "pharmacy", "brand": "Rite Aid", "brand:wikidata": "Q3433273", "brand:wikipedia": "en:Rite Aid", "dispensing": "yes", "healthcare": "pharmacy", "name": "Rite Aid", "opening_hours": "Mo-Fr 09:00-19:00; Sa 09:00-18:00; Su 10:00-18:00", "source:name": "Factoria Mall", "wheelchair": "yes"}}, {"type": "Feature", "id": 1346018719, "geometry": {"type": "Point", "coordinates": [-122.170996, 47.575399]}, "properties": {}}, {"type": "Feature", "id": 1346018722, "geometry": {"type": "Point", "coordinates": [-122.170981, 47.575344]}, "properties": {}}, {"type": "Feature", "id": 1346018728, "geometry": {"type": "Point", "coordinates": [-122.170979, 47.575248]}, "properties": {}}, {"type": "Feature", "id": 1346018732, "geometry": {"type": "Point", "coordinates": [-122.17098, 47.575399]}, "properties": {}}, {"type": "Feature", "id": 1346018738, "geometry": {"type": "Point", "coordinates": [-122.17095, 47.574061]}, "properties": {}}, {"type": "Feature", "id": 1346018742, "geometry": {"type": "Point", "coordinates": [-122.170996, 47.575345]}, "properties": {}}, {"type": "Feature", "id": 1346018745, "geometry": {"type": "Point", "coordinates": [-122.170944, 47.575224]}, "properties": {}}, {"type": "Feature", "id": 1346018749, "geometry": {"type": "Point", "coordinates": [-122.170997, 47.573937]}, "properties": {}}, {"type": "Feature", "id": 1486583724, "geometry": {"type": "Point", "coordinates": [-122.170979, 47.575619]}, "properties": {}}, {"type": "Feature", "id": 1486583728, "geometry": {"type": "Point", "coordinates": [-122.171009, 47.575683]}, "properties": {}}, {"type": "Feature", "id": 1486583731, "geometry": {"type": "Point", "coordinates": [-122.171757, 47.575683]}, "properties": {}}, {"type": "Feature", "id": 1503586009, "geometry": {"type": "Point", "coordinates": [-122.172771, 47.574197]}, "properties": {"amenity": "bicycle_parking", "bicycle_parking": "stands", "capacity": "3", "check_date": "2023-05-10", "covered": "yes"}}, {"type": "Feature", "id": 1777283090, "geometry": {"type": "Point", "coordinates": [-122.171483, 47.575304]}, "properties": {"addr:housenumber": "3909", "addr:street": "Factoria Boulevard Southeast", "amenity": "restaurant", "brand": "Red Robin", "brand:wikidata": "Q7304886", "brand:wikipedia": "en:Red Robin", "check_date:opening_hours": "2023-05-10", "cuisine": "burger", "indoor_seating": "yes", "name": "Red Robin", "official_name": "Red Robin Gourmet Burgers and Brews", "opening_hours:signed": "no", "outdoor_seating": "no", "phone": "+1-425-649-3989", "wheelchair": "yes"}}, {"type": "Feature", "id": 3308773561, "geometry": {"type": "Point", "coordinates": [-122.171229, 47.573858]}, "properties": {"alt_name": "Ulta Skin Bar", "beauty": "skin_care", "brand": "Ulta Beauty", "brand:wikidata": "Q7880076", "brand:wikipedia": "en:Ulta Beauty", "name": "Ulta Beauty", "shop": "cosmetics", "website": "https://www.ulta.com/", "wheelchair": "yes"}}, {"type": "Feature", "id": 3308773562, "geometry": {"type": "Point", "coordinates": [-122.17123, 47.574308]}, "properties": {"brand": "Torrid", "brand:wikidata": "Q7827120", "brand:wikipedia": "en:Torrid (clothing retailer)", "clothes": "oversize;women", "name": "Torrid", "opening_hours": "Mo-Sa 11:00-19:00; Su 11:00-18:00", "shop": "clothes", "wheelchair": "yes"}}, {"type": "Feature", "id": 3308773661, "geometry": {"type": "Point", "coordinates": [-122.171221, 47.5744]}, "properties": {"alt_name": "Verizon Wireless", "brand": "Verizon", "brand:wikidata": "Q919641", "brand:wikipedia": "en:Verizon (mobile network)", "name": "Verizon", "opening_hours": "Mo-Fr 11:00-19:00; Sa 10:00-19:00; Su 12:00-17:00", "shop": "mobile_phone", "wheelchair": "yes"}}, {"type": "Feature", "id": 3308773662, "geometry": {"type": "Point", "coordinates": [-122.171226, 47.574498]}, "properties": {"amenity": "fast_food", "brand": "Panera Bread", "brand:wikidata": "Q7130852", "brand:wikipedia": "en:Panera Bread", "cuisine": "sandwich;bakery", "diet:vegetarian": "yes", "indoor_seating": "yes", "name": "Panera Bread", "opening_hours": "Mo-Sa 06:00-21:00; Su 07:00-21:00", "outdoor_seating": "yes", "short_name": "Panera", "takeaway": "yes", "wheelchair": "yes"}}, {"type": "Feature", "id": 3308773761, "geometry": {"type": "Point", "coordinates": [-122.171005, 47.574699]}, "properties": {"amenity": "fast_food", "brand": "Panda Express", "brand:wikidata": "Q1358690", "brand:wikipedia": "en:Panda Express", "cuisine": "chinese", "indoor_seating": "yes", "name": "Panda Express", "opening_hours": "Mo-Sa 10:30-21:30; Su 11:00-21:00", "outdoor_seating": "no", "takeaway": "yes", "wheelchair": "yes"}}, {"type": "Feature", "id": 3308773861, "geometry": {"type": "Point", "coordinates": [-122.170989, 47.574807]}, "properties": {"alt_name": "Jamba Juice", "amenity": "fast_food", "brand": "Jamba", "brand:wikidata": "Q3088784", "brand:wikipedia": "en:Jamba Juice", "check_date:opening_hours": "2023-05-10", "cuisine": "juice", "diet:vegetarian": "yes", "indoor_seating": "yes", "name": "Jamba", "opening_hours:signed": "no", "outdoor_seating": "no", "takeaway": "yes", "toilets:wheelchair": "yes", "wheelchair": "yes"}}, {"type": "Feature", "id": 3308773961, "geometry": {"type": "Point", "coordinates": [-122.170981, 47.574904]}, "properties": {"amenity": "restaurant", "cuisine": "sushi", "indoor_seating": "yes", "name": "Ten Sushi", "opening_hours": "Mo-Su 10:00-01:00", "outdoor_seating": "no", "wheelchair": "yes"}}, {"type": "Feature", "id": 3308774061, "geometry": {"type": "Point", "coordinates": [-122.170998, 47.57509]}, "properties": {"check_date:opening_hours": "2023-05-10", "name": "In Spa", "opening_hours:signed": "no", "shop": "beauty", "toilets:wheelchair": "yes", "wheelchair": "yes"}}, {"type": "Feature", "id": 3308774161, "geometry": {"type": "Point", "coordinates": [-122.170985, 47.575214]}, "properties": {"amenity": "ice_cream", "brand": "Cold Stone Creamery", "brand:wikidata": "Q1094923", "brand:wikipedia": "en:Cold Stone Creamery", "cuisine": "ice_cream", "indoor_seating": "yes", "name": "Cold Stone Creamery", "opening_hours": "Mo-Th 12:00-20:30; Fr-Su 12:00-21:00", "outdoor_seating": "no", "wheelchair": "yes"}}, {"type": "Feature", "id": 3326260013, "geometry": {"type": "Point", "coordinates": [-122.172863, 47.573179]}, "properties": {}}, {"type": "Feature", "id": 3326260014, "geometry": {"type": "Point", "coordinates": [-122.172254, 47.573178]}, "properties": {}}, {"type": "Feature", "id": 3762972118, "geometry": {"type": "Point", "coordinates": [-122.172179, 47.575129]}, "properties": {"entrance": "yes"}}, {"type": "Feature", "id": 3762972119, "geometry": {"type": "Point", "coordinates": [-122.171337, 47.575181]}, "properties": {}}, {"type": "Feature", "id": 3762972120, "geometry": {"type": "Point", "coordinates": [-122.171168, 47.575295]}, "properties": {}}, {"type": "Feature", "id": 3762972121, "geometry": {"type": "Point", "coordinates": [-122.170979, 47.575294]}, "properties": {"entrance": "yes"}}, {"type": "Feature", "id": 3762972122, "geometry": {"type": "Point", "coordinates": [-122.171394, 47.575156]}, "properties": {}}, {"type": "Feature", "id": 3762972123, "geometry": {"type": "Point", "coordinates": [-122.171418, 47.573982]}, "properties": {}}, {"type": "Feature", "id": 3762972124, "geometry": {"type": "Point", "coordinates": [-122.171344, 47.57464]}, "properties": {}}, {"type": "Feature", "id": 3762972125, "geometry": {"type": "Point", "coordinates": [-122.171414, 47.574567]}, "properties": {}}, {"type": "Feature", "id": 3762972127, "geometry": {"type": "Point", "coordinates": [-122.172436, 47.574022]}, "properties": {}}, {"type": "Feature", "id": 3762972128, "geometry": {"type": "Point", "coordinates": [-122.172198, 47.574]}, "properties": {}}, {"type": "Feature", "id": 3762972129, "geometry": {"type": "Point", "coordinates": [-122.17195, 47.573983]}, "properties": {}}, {"type": "Feature", "id": 3762972130, "geometry": {"type": "Point", "coordinates": [-122.170997, 47.573984]}, "properties": {"entrance": "yes"}}, {"type": "Feature", "id": 3763003001, "geometry": {"type": "Point", "coordinates": [-122.171927, 47.575156]}, "properties": {}}, {"type": "Feature", "id": 3763003002, "geometry": {"type": "Point", "coordinates": [-122.172027, 47.575128]}, "properties": {}}, {"type": "Feature", "id": 3763003004, "geometry": {"type": "Point", "coordinates": [-122.172092, 47.575128]}, "properties": {}}, {"type": "Feature", "id": 3763003005, "geometry": {"type": "Point", "coordinates": [-122.172092, 47.575086]}, "properties": {}}, {"type": "Feature", "id": 3763003006, "geometry": {"type": "Point", "coordinates": [-122.171589, 47.575086]}, "properties": {}}, {"type": "Feature", "id": 3763003007, "geometry": {"type": "Point", "coordinates": [-122.171589, 47.575156]}, "properties": {}}, {"type": "Feature", "id": 3763003008, "geometry": {"type": "Point", "coordinates": [-122.170964, 47.574642]}, "properties": {"entrance": "yes"}}, {"type": "Feature", "id": 3763003009, "geometry": {"type": "Point", "coordinates": [-122.172081, 47.574255]}, "properties": {}}, {"type": "Feature", "id": 3763003010, "geometry": {"type": "Point", "coordinates": [-122.172521, 47.573178]}, "properties": {}}, {"type": "Feature", "id": 3884179723, "geometry": {"type": "Point", "coordinates": [-122.172092, 47.573361]}, "properties": {"addr:city": "Bellevue", "addr:housenumber": "4092", "addr:postcode": "98006", "addr:street": "Factoria Boulevard Southeast", "amenity": "restaurant", "cuisine": "asian", "indoor_seating": "yes", "name": "Dim Sum Factory", "outdoor_seating": "no"}}, {"type": "Feature", "id": 3900608982, "geometry": {"type": "Point", "coordinates": [-122.171789, 47.574767]}, "properties": {"addr:city": "Bellevue", "addr:housenumber": "4091", "addr:postcode": "98006", "addr:street": "Factoria Square Mall Southeast"}}, {"type": "Feature", "id": 3937064614, "geometry": {"type": "Point", "coordinates": [-122.171602, 47.575117]}, "properties": {"amenity": "toilets", "changing_table": "yes", "fee": "no", "wheelchair": "yes"}}, {"type": "Feature", "id": 4241455374, "geometry": {"type": "Point", "coordinates": [-122.172068, 47.573907]}, "properties": {"addr:city": "Bellevue", "addr:housenumber": "4058", "addr:postcode": "98006", "addr:street": "Factoria Boulevard Southeast", "amenity": "cafe", "indoor_seating": "yes", "name": "Arepa Venezuelan Kitchen", "opening_hours": "Mo-Sa 11:00-20:00; Su 11:00-18:00", "outdoor_seating": "no"}}, {"type": "Feature", "id": 4806905594, "geometry": {"type": "Point", "coordinates": [-122.172537, 47.573609]}, "properties": {"addr:city": "Bellevue", "addr:housenumber": "4077", "addr:postcode": "98006", "addr:street": "Factoria Mall Southeast", "fee": "yes", "leisure": "playground", "name": "Funtastic Playtorium", "wheelchair": "yes"}}, {"type": "Feature", "id": 5150674825, "geometry": {"type": "Point", "coordinates": [-122.172267, 47.574841]}, "properties": {"brand": "Restoration Hardware", "brand:wikidata": "Q7316207", "brand:wikipedia": "en:RH (company)", "name": "Restoration Hardware", "opening_hours": "Mo-Sa 10:00-19:00; Su 11:00-18:00", "shop": "furniture", "wheelchair": "yes"}}, {"type": "Feature", "id": 5411548518, "geometry": {"type": "Point", "coordinates": [-122.171228, 47.574084]}, "properties": {"brand": "Nike", "brand:wikidata": "Q483915", "brand:wikipedia": "en:Nike, Inc.", "name": "Nike", "shop": "clothes", "wheelchair": "yes"}}, {"type": "Feature", "id": 6524767829, "geometry": {"type": "Point", "coordinates": [-122.172043, 47.575057]}, "properties": {"amenity": "police", "name": "Bellevue Police Department", "wheelchair": "yes"}}, {"type": "Feature", "id": 6524767830, "geometry": {"type": "Point", "coordinates": [-122.173011, 47.574236]}, "properties": {"entrance": "yes"}}, {"type": "Feature", "id": 6524767831, "geometry": {"type": "Point", "coordinates": [-122.173, 47.574023]}, "properties": {}}, {"type": "Feature", "id": 6524767832, "geometry": {"type": "Point", "coordinates": [-122.172769, 47.574023]}, "properties": {"entrance": "yes"}}, {"type": "Feature", "id": 6524767833, "geometry": {"type": "Point", "coordinates": [-122.172744, 47.574236]}, "properties": {"entrance": "yes"}}, {"type": "Feature", "id": 6524767834, "geometry": {"type": "Point", "coordinates": [-122.17273, 47.574023]}, "properties": {}}, {"type": "Feature", "id": 7555197256, "geometry": {"type": "Point", "coordinates": [-122.172924, 47.574199]}, "properties": {"amenity": "cafe", "brand": "Starbucks", "brand:wikidata": "Q37158", "brand:wikipedia": "en:Starbucks", "contact:website": "https://www.starbucks.com/store-locator/store/1005920/target-bellevue-339-4053-factoria-square-mall-se-bellevue-wa-98006-us", "cuisine": "coffee_shop", "diet:vegetarian": "yes", "indoor_seating": "yes", "name": "Starbucks", "official_name": "Starbucks Coffee", "opening_hours": "Mo-Su 08:00-20:00", "outdoor_seating": "no", "takeaway": "yes", "wheelchair": "yes"}}, {"type": "Feature", "id": 9480351807, "geometry": {"type": "Point", "coordinates": [-122.171084, 47.575634]}, "properties": {"brand": "Pet Supplies Plus", "brand:wikidata": "Q7171563", "brand:wikipedia": "en:Pet Supplies Plus", "name": "Pet Supplies Plus", "opening_hours": "Mo-Sa 08:30-18:00; Su 10:00-18:00", "shop": "pet", "wheelchair": "yes"}}, {"type": "Feature", "id": 9480351808, "geometry": {"type": "Point", "coordinates": [-122.170997, 47.574996]}, "properties": {"name": "Lakeshore Learning Store", "opening_hours": "Mo-Sa 10:00-20:00; Su 11:00-17:00", "shop": "toys", "wheelchair": "yes"}}, {"type": "Feature", "id": 9480351809, "geometry": {"type": "Point", "coordinates": [-122.171259, 47.574714]}, "properties": {"check_date:opening_hours": "2023-05-10", "name": "Exclusively Art", "opening_hours:signed": "no", "shop": "art"}}, {"type": "Feature", "id": 9480351810, "geometry": {"type": "Point", "coordinates": [-122.171564, 47.574089]}, "properties": {"brand": "Bath & Body Works", "brand:wikidata": "Q810773", "brand:wikipedia": "en:Bath & Body Works", "name": "Bath & Body Works", "shop": "cosmetics"}}, {"type": "Feature", "id": 9480351811, "geometry": {"type": "Point", "coordinates": [-122.171543, 47.574387]}, "properties": {"name": "Mighty Moose Comics", "opening_hours": "Mo-Sa 11:00-19:00; Su 11:00-18:00", "shop": "collector", "wheelchair": "limited"}}, {"type": "Feature", "id": 9480351812, "geometry": {"type": "Point", "coordinates": [-122.171571, 47.57463]}, "properties": {"name": "Olsen & Sons Fine Jewelery", "opening_hours": "Mo,Fr 10:00-19:00; Tu-Th,Sa 10:00-18:00; Su 11:00-17:00", "shop": "jewelry"}}, {"type": "Feature", "id": 9480351813, "geometry": {"type": "Point", "coordinates": [-122.17141, 47.574844]}, "properties": {"brand": "claire's", "brand:wikidata": "Q2974996", "brand:wikipedia": "en:Claire's", "name": "claire's", "opening_hours": "Mo-Fr 11:00-19:00; Sa 10:00-19:00; Su 11:00-18:00", "shop": "fashion_accessories", "wheelchair": "yes"}}, {"type": "Feature", "id": 9480351814, "geometry": {"type": "Point", "coordinates": [-122.171408, 47.574915]}, "properties": {"check_date:opening_hours": "2023-05-10", "female:signed": "no", "male:signed": "no", "name": "Standing on Top", "opening_hours:signed": "no", "shop": "hairdresser"}}, {"type": "Feature", "id": 9480351815, "geometry": {"type": "Point", "coordinates": [-122.171413, 47.575038]}, "properties": {"check_date:opening_hours": "2023-05-10", "name": "Frame Shop", "opening_hours:signed": "no", "shop": "frame", "wheelchair": "limited"}}, {"type": "Feature", "id": 9480351816, "geometry": {"type": "Point", "coordinates": [-122.171892, 47.575056]}, "properties": {"brand": "Pearle Vision", "brand:wikidata": "Q2231148", "brand:wikipedia": "en:Pearle Vision", "name": "Pearle Vision", "opening_hours": "Mo-Sa 10:00-19:00; Su 11:00-18:00", "shop": "optician", "short_name": "Pearle", "wheelchair": "yes"}}, {"type": "Feature", "id": 9480378417, "geometry": {"type": "Point", "coordinates": [-122.172576, 47.574194]}, "properties": {"brand": "Famous Footwear", "brand:wikidata": "Q5433457", "brand:wikipedia": "en:Famous Footwear", "check_date:opening_hours": "2023-05-10", "name": "Famous Footwear", "opening_hours:signed": "no", "shop": "shoes", "wheelchair": "yes"}}, {"type": "Feature", "id": 9480378418, "geometry": {"type": "Point", "coordinates": [-122.172578, 47.573951]}, "properties": {"name": "Jade Holiday Travel & Tours", "shop": "travel_agency"}}, {"type": "Feature", "id": 9480378419, "geometry": {"type": "Point", "coordinates": [-122.172338, 47.573961]}, "properties": {"amenity": "fast_food", "check_date:opening_hours": "2023-05-10", "cuisine": "poke", "indoor_seating": "yes", "name": "Just Poke", "opening_hours:signed": "no", "outdoor_seating": "no"}}, {"type": "Feature", "id": 9480378420, "geometry": {"type": "Point", "coordinates": [-122.172392, 47.573773]}, "properties": {"name": "Kimco", "office": "yes"}}, {"type": "Feature", "id": 9480378421, "geometry": {"type": "Point", "coordinates": [-122.172604, 47.573404]}, "properties": {"amenity": "school", "name": "Goldfish Swim School"}}, {"type": "Feature", "id": 9480378422, "geometry": {"type": "Point", "coordinates": [-122.171913, 47.573918]}, "properties": {"amenity": "cafe", "cuisine": "bubble_tea", "indoor_seating": "yes", "name": "Mr. Green Bubble", "opening_hours": "Su,Mo 11:00-18:00; Tu-Sa 11:00-20:00", "outdoor_seating": "no"}}, {"type": "Feature", "id": 9669678284, "geometry": {"type": "Point", "coordinates": [-122.171793, 47.573881]}, "properties": {}}, {"type": "Feature", "id": 9669678285, "geometry": {"type": "Point", "coordinates": [-122.171841, 47.57388]}, "properties": {}}, {"type": "Feature", "id": 9669678286, "geometry": {"type": "Point", "coordinates": [-122.171841, 47.573796]}, "properties": {}}, {"type": "Feature", "id": 9669678287, "geometry": {"type": "Point", "coordinates": [-122.171881, 47.573797]}, "properties": {}}, {"type": "Feature", "id": 9669678288, "geometry": {"type": "Point", "coordinates": [-122.172088, 47.57328]}, "properties": {}}, {"type": "Feature", "id": 9669705045, "geometry": {"type": "Point", "coordinates": [-122.170965, 47.574607]}, "properties": {}}, {"type": "Feature", "id": 9669705046, "geometry": {"type": "Point", "coordinates": [-122.170941, 47.574607]}, "properties": {}}, {"type": "Feature", "id": 9669705047, "geometry": {"type": "Point", "coordinates": [-122.170965, 47.574676]}, "properties": {}}, {"type": "Feature", "id": 9669705048, "geometry": {"type": "Point", "coordinates": [-122.170943, 47.574676]}, "properties": {}}, {"type": "Feature", "id": 11301242586, "geometry": {"type": "Point", "coordinates": [-122.172779, 47.574236]}, "properties": {"amenity": "waste_basket", "colour": "black", "material": "metal", "waste": "trash"}}]}