{"type": "FeatureCollection", "features": [{"type": "Feature", "id": 4055969872, "geometry": {"type": "Point", "coordinates": [-117.408957, 47.672081]}, "properties": {"brand": "Great Clips", "brand:wikidata": "Q5598967", "brand:wikipedia": "en:Great Clips", "name": "Great Clips", "shop": "hairdresser"}}, {"type": "Feature", "id": 4055969874, "geometry": {"type": "Point", "coordinates": [-117.409246, 47.672079]}, "properties": {"amenity": "fast_food", "brand": "Jimmy John's", "brand:wikidata": "Q1689380", "brand:wikipedia": "en:Jimmy John's", "cuisine": "sandwich", "name": "Jimmy John's", "official_name": "Jimmy John's Gourmet Sandwiches", "takeaway": "yes"}}, {"type": "Feature", "id": 4055969876, "geometry": {"type": "Point", "coordinates": [-117.408862, 47.672081]}, "properties": {"amenity": "clinic", "healthcare": "clinic", "name": "Providence Express Care"}}, {"type": "Feature", "id": 4055970185, "geometry": {"type": "Point", "coordinates": [-117.408817, 47.672044]}, "properties": {}}, {"type": "Feature", "id": 4055970186, "geometry": {"type": "Point", "coordinates": [-117.409315, 47.672044]}, "properties": {}}, {"type": "Feature", "id": 4055970187, "geometry": {"type": "Point", "coordinates": [-117.40906, 47.672081]}, "properties": {"brand": "T-Mobile", "brand:wikidata": "Q3511885", "brand:wikipedia": "en:T-Mobile US", "name": "T-Mobile", "shop": "mobile_phone"}}, {"type": "Feature", "id": 4055970188, "geometry": {"type": "Point", "coordinates": [-117.408817, 47.672159]}, "properties": {}}, {"type": "Feature", "id": 4055970189, "geometry": {"type": "Point", "coordinates": [-117.409315, 47.672185]}, "properties": {}}, {"type": "Feature", "id": 5925830852, "geometry": {"type": "Point", "coordinates": [-117.408858, 47.672159]}, "properties": {}}, {"type": "Feature", "id": 5925830853, "geometry": {"type": "Point", "coordinates": [-117.408898, 47.672171]}, "properties": {}}, {"type": "Feature", "id": 5925830854, "geometry": {"type": "Point", "coordinates": [-117.408858, 47.672171]}, "properties": {}}, {"type": "Feature", "id": 5925830855, "geometry": {"type": "Point", "coordinates": [-117.408898, 47.672185]}, "properties": {}}]}