{"type": "FeatureCollection", "features": [{"type": "Feature", "id": 2428609353, "geometry": {"type": "Point", "coordinates": [-122.063513, 48.014408]}, "properties": {"addr:city": "Lake Stevens", "addr:housenumber": "1809", "addr:postcode": "98258", "addr:state": "WA", "addr:street": "Main Street", "name": "Jay's Market", "opening_hours": "Mo-Su 07:00-21:00", "phone": "+1-425-334-1256", "shop": "supermarket"}}, {"type": "Feature", "id": 2428609354, "geometry": {"type": "Point", "coordinates": [-122.063624, 48.013972]}, "properties": {"addr:city": "Lake Stevens", "addr:housenumber": "1801", "addr:postcode": "98258", "addr:state": "WA", "addr:street": "Main Street", "amenity": "restaurant", "bar": "yes", "brewery": "yes", "cuisine": "breakfast;steak_house;american;burger", "name": "Buzz Inn Steakhouse", "opening_hours": "Mo-Th 06:00-22:00, Fr-Sa 06:00-23:00, Su 07:00-22:00", "phone": "+1-425-377-9599", "website": "https://buzzinnsteakhouse.com/"}}, {"type": "Feature", "id": 2428609357, "geometry": {"type": "Point", "coordinates": [-122.063513, 48.014124]}, "properties": {"addr:city": "Lake Stevens", "addr:housenumber": "1805", "addr:postcode": "98258", "addr:state": "WA", "addr:street": "Main Street", "addr:unit": "Ste A", "contact:facebook": "https://www.facebook.com/GamesPlusWa", "name": "Games Plus", "opening_hours": "Tu-Sa 12:00-21:00; Su 12:00-20:00", "phone": "+1-425-377-2850", "shop": "games", "website": "https://gamespluswa.net"}}, {"type": "Feature", "id": 3243261832, "geometry": {"type": "Point", "coordinates": [-122.063681, 48.014747]}, "properties": {}}, {"type": "Feature", "id": 3243261833, "geometry": {"type": "Point", "coordinates": [-122.06375, 48.014616]}, "properties": {}}, {"type": "Feature", "id": 3243261834, "geometry": {"type": "Point", "coordinates": [-122.06359, 48.014571]}, "properties": {}}, {"type": "Feature", "id": 3243261835, "geometry": {"type": "Point", "coordinates": [-122.063588, 48.014026]}, "properties": {}}, {"type": "Feature", "id": 3243261836, "geometry": {"type": "Point", "coordinates": [-122.063715, 48.014025]}, "properties": {}}, {"type": "Feature", "id": 3243261837, "geometry": {"type": "Point", "coordinates": [-122.063711, 48.013904]}, "properties": {}}, {"type": "Feature", "id": 3243261838, "geometry": {"type": "Point", "coordinates": [-122.063252, 48.01391]}, "properties": {}}, {"type": "Feature", "id": 3243261839, "geometry": {"type": "Point", "coordinates": [-122.063254, 48.014248]}, "properties": {}}, {"type": "Feature", "id": 3243261840, "geometry": {"type": "Point", "coordinates": [-122.063155, 48.014249]}, "properties": {}}, {"type": "Feature", "id": 3243261841, "geometry": {"type": "Point", "coordinates": [-122.063159, 48.014497]}, "properties": {}}, {"type": "Feature", "id": 3243261842, "geometry": {"type": "Point", "coordinates": [-122.063203, 48.014497]}, "properties": {}}, {"type": "Feature", "id": 3243261843, "geometry": {"type": "Point", "coordinates": [-122.063201, 48.014534]}, "properties": {}}, {"type": "Feature", "id": 3243261844, "geometry": {"type": "Point", "coordinates": [-122.063317, 48.014533]}, "properties": {}}, {"type": "Feature", "id": 3243261845, "geometry": {"type": "Point", "coordinates": [-122.063321, 48.014658]}, "properties": {}}, {"type": "Feature", "id": 3243261846, "geometry": {"type": "Point", "coordinates": [-122.063292, 48.014657]}, "properties": {}}, {"type": "Feature", "id": 3243261847, "geometry": {"type": "Point", "coordinates": [-122.063292, 48.014743]}, "properties": {}}, {"type": "Feature", "id": 3243261848, "geometry": {"type": "Point", "coordinates": [-122.063434, 48.014742]}, "properties": {}}, {"type": "Feature", "id": 3243261849, "geometry": {"type": "Point", "coordinates": [-122.06346, 48.014698]}, "properties": {}}, {"type": "Feature", "id": 3243261850, "geometry": {"type": "Point", "coordinates": [-122.063509, 48.014701]}, "properties": {}}, {"type": "Feature", "id": 3586486217, "geometry": {"type": "Point", "coordinates": [-122.06363, 48.014635]}, "properties": {"amenity": "bank", "brand": "Wells Fargo", "brand:wikidata": "Q744149", "brand:wikipedia": "en:Wells Fargo", "name": "Wells Fargo"}}, {"type": "Feature", "id": 7111758969, "geometry": {"type": "Point", "coordinates": [-122.063528, 48.014507]}, "properties": {"addr:city": "Lake Stevens", "addr:housenumber": "1811", "addr:postcode": "98258", "addr:state": "WA", "addr:street": "Main Street", "amenity": "cafe", "cuisine": "coffee_shop;bistro", "drive_through": "no", "name": "Biscuit & Bean", "phone": "+1-425-405-3051", "takeaway": "yes", "website": "https://www.biscuitandbean.biz", "website:menu": "https://www.biscuitandbean.biz/lakestevensmenu"}}, {"type": "Feature", "id": 7111758970, "geometry": {"type": "Point", "coordinates": [-122.063516, 48.014242]}, "properties": {"addr:city": "Lake Stevens", "addr:housenumber": "1807", "addr:postcode": "98258", "addr:state": "WA", "addr:street": "Main Street", "amenity": "fast_food", "brand": "Subway", "brand:wikidata": "Q244457", "brand:wikipedia": "en:Subway (restaurant)", "cuisine": "sandwich", "drive_through": "no", "name": "Subway", "phone": "+1-425-335-9938", "takeaway": "yes", "website": "https://restaurants.subway.com/united-states/wa/lake-stevens/1807-main-st?utm_source=yxt-goog&utm_medium=local&utm_term=acq&utm_content=40657&utm_campaign=evergreen-2020&y_source=1_MTQ5MDgxNzEtNzE1LWxvY2F0aW9uLndlYnNpdGU%3D", "website:menu": "https://order.subway.com/en-us/restaurant/40657-0/menu/?utm_source=yxt-goog&utm_medium=local&utm_term=acquisition&utm_content=40657&utm_campaign=yxt-restaurant-listing-allyear-2020&cid=0%3Atx%3A0%3Aswy-web%3A0%3A0&segment_code=0&y_source=1_MTQ5MDgxNzEtNzE"}}, {"type": "Feature", "id": 7111758971, "geometry": {"type": "Point", "coordinates": [-122.063519, 48.014182]}, "properties": {"addr:city": "Lake Stevens", "addr:housenumber": "1805", "addr:postcode": "98258", "addr:state": "WA", "addr:street": "Main Street", "addr:unit": "Ste C", "amenity": "fast_food", "cuisine": "donut", "diet:dairy_free": "yes", "diet:gluten_free": "yes", "diet:vegan": "yes", "diet:vegetarian": "yes", "drive_through": "no", "name": "Lake Stevens Donuts", "opening_hours": "Tu 07:00-13:00; We-Fr 07:00-17:00; Sa 07:00-15:00; Su 07:00-12:00", "phone": "+1-425-263-9953", "website": "https://lake-stevens-donuts.square.site"}}, {"type": "Feature", "id": 10276642061, "geometry": {"type": "Point", "coordinates": [-122.063588, 48.014057]}, "properties": {}}, {"type": "Feature", "id": 10276642062, "geometry": {"type": "Point", "coordinates": [-122.063477, 48.014699]}, "properties": {}}, {"type": "Feature", "id": 10278936996, "geometry": {"type": "Point", "coordinates": [-122.063452, 48.014393]}, "properties": {"amenity": "post_box", "brand": "UPS", "brand:wikidata": "Q155026", "drive_through": "no", "official_name": "United Parcel Service", "operator": "UPS", "operator:type": "private", "operator:wikidata": "Q155026"}}]}